{
  "type": "FeatureCollection",
  "features": [
    {
      "type": "Feature",
      "geometry": {
        "type": "Point",
        "coordinates": [
          2.273197,
          46.955433
        ]
      },
      "properties": {
        "name": "Puit des Grenades",
        "discussion": "",
        "scan3d": "https://skfb.ly/pIIS6",
        "image": "https://media.sketchfab.com/models/8d66e0f8894d493682835c7d208b258a/thumbnails/f01cd217498040f8a7b8406c0312b6e1/8485a21ba07147279e6e42ef778b67c2.jpeg"
      }
    },
    {
      "type": "Feature",
      "geometry": {
        "type": "Point",
        "coordinates": [
          2.275218,
          46.957981
        ]
      },
      "properties": {
        "name": "Puit du Renard",
        "discussion": "",
        "scan3d": "https://skfb.ly/pIIRu",
        "image": "https://media.sketchfab.com/models/fbe6843f402c4290b1c2ffa20363973e/thumbnails/4d713521aacc431a9665f1e2cfe037a0/6fdccce0e8fb48a9b31e4e7b82600bbf.jpeg"
      }
    },
    {
      "type": "Feature",
      "geometry": {
        "type": "Point",
        "coordinates": [
          2.272554,
          46.956354
        ]
      },
      "properties": {
        "name": "Trou de l Entonnoir",
        "discussion": "",
        "scan3d": "https://skfb.ly/pIIRH",
        "image": "https://media.sketchfab.com/models/1c531942962b4c198f4eac724ec3c624/thumbnails/e12baaf45be84effad45b228fcccd04e/494fd81940db401dbc614d3276c43f4f.jpeg"
      }
    },
    {
      "type": "Feature",
      "geometry": {
        "type": "Point",
        "coordinates": [
          2.273435,
          46.955877
        ]
      },
      "properties": {
        "name": "Effondrement de Jade",
        "discussion": "",
        "scan3d": "https://skfb.ly/pIIRX",
        "image": "https://media.sketchfab.com/models/2f07e2bc27534bb2a42651d6ca227f7a/thumbnails/cd3883deaae1466d9a3e664a364297a7/676e16660460474680818390970b1ad3.jpeg"
      }
    },
    {
      "type": "Feature",
      "geometry": {
        "type": "Point",
        "coordinates": [
          2.27579,
          46.95539
        ]
      },
      "properties": {
        "name": "Puit de l Araignée verte",
        "discussion": "",
        "scan3d": "https://skfb.ly/pIIS8",
        "image": "https://media.sketchfab.com/models/f11a84e9ee8f4f51b498e36418016b11/thumbnails/e04e9ebe95b044eabf2a837e6ad36558/e5201a68265a4d73b773f88eec9a1562.jpeg"
      }
    },
    {
      "type": "Feature",
      "geometry": {
        "type": "Point",
        "coordinates": [
          2.27577,
          46.95527
        ]
      },
      "properties": {
        "name": "Puit Moussu",
        "discussion": "",
        "scan3d": "",
        "image": "https://raw.githubusercontent.com/CDS45/mines-lunery/fbd11ca6ce7a10801abc92c71836c62d60679e18/images/puit-moussu.jpeg"
      }
    },
    {
      "type": "Feature",
      "geometry": {
        "type": "Point",
        "coordinates": [
          2.27447,
          46.95818
        ]
      },
      "properties": {
        "name": "Trou Terrier",
        "discussion": "",
        "scan3d": "",
        "image": "https://github.com/CDS45/mines-lunery/blob/main/images/trou-terrier.jpeg?raw=true"
      }
    },
    {
      "type": "Feature",
      "geometry": {
        "type": "Point",
        "coordinates": [
          2.27447,
          46.95848
        ]
      },
      "properties": {
        "name": "Gisement des Cailloux",
        "discussion": "",
        "scan3d": "",
        "image": "https://github.com/CDS45/mines-lunery/blob/main/images/gisement-cailloux.jpeg?raw=true"
      }
    },
    {
      "type": "Feature",
      "geometry": {
        "type": "Point",
        "coordinates": [
          2.27331,
          46.957
        ]
      },
      "properties": {
        "name": "Horizontal Anonyme",
        "discussion": "",
        "scan3d": "https://skfb.ly/pIKN6",
        "image": "https://media.sketchfab.com/models/e0ff789305fd436ebca771afdc91bbd3/thumbnails/bd2644dab475463ba49d4f2f7c887e89/61b724f92ef44791919c13c88185ab66.jpeg"
      }
    },
    {
      "type": "Feature",
      "geometry": {
        "type": "Point",
        "coordinates": [
          2.27436,
          46.95639
        ]
      },
      "properties": {
        "name": "Effondrement",
        "discussion": "",
        "scan3d": "https://skfb.ly/pIKNQ",
        "image": "https://media.sketchfab.com/models/26e372b87bf14d868c23ad24d770ef6e/thumbnails/3430175cb06043e8a6c8adc55fc3ce30/c96c1d8212ed49fa9c04c4c37162a128.jpeg"
      }
    },
    {
      "type": "Feature",
      "geometry": {
        "type": "Point",
        "coordinates": [
          2.2739,
          46.9562
        ]
      },
      "properties": {
        "name": "Puit Lambda",
        "discussion": "",
        "scan3d": "https://skfb.ly/pIKNV",
        "image": "https://media.sketchfab.com/models/1972868404f74b61a8117f04674d2e69/thumbnails/d26b94dad20642c084d625b12b321a3f/f35a02517c5c480fa7cbc01c69575f38.jpeg"
      }
    },
    {
      "type": "Feature",
      "geometry": {
        "type": "Point",
        "coordinates": [
          2.2776,
          46.95366
        ]
      },
      "properties": {
        "name": "Trou",
        "discussion": "",
        "scan3d": "",
        "image": "https://github.com/CDS45/mines-lunery/blob/main/images/trou.jpeg?raw=true"
      }
    }
  ]
}